{"locations": [{"addr": "Hafnarstr\u00e6ti, Akureyri, Iceland", "lng": -18.089721, "lat": 65.68093499999999}, {"addr": "Lake Crescent, Washington 98363, USA", "lng": -123.8131963, "lat": 48.05823100000001}, {"addr": "Little River Canyon National Preserve, Mentone, AL 35984, USA", "lng": -85.6269488, "lat": 34.3824402}, {"addr": "Indian Head, Keene, NY 12943, USA", "lng": -73.82097170000002, "lat": 44.1131082}, {"addr": "1632 El Paso Dr, Norco, CA 92860, USA", "lng": -117.541646, "lat": 33.904694}, {"addr": "Mt Hood, Oregon 97041, USA", "lng": -121.695951, "lat": 45.373615}, {"addr": "Yosemite National Park, California, USA", "lng": -119.5383294, "lat": 37.8651011}, {"addr": "Tatra Mountains", "lng": 20.0442995, "lat": 49.1556982}]}